Access/Place-Cambridge-Sensor-Sensor1-To-Satellite-ADORE_Access.txt

                                                                              24 Aug 2020 20:37:14
Approved AGI Educational Alliance Partner
Place-Cambridge-Sensor-Sensor1-To-Satellite-ADORE:  Access Summary Report


Sensor1-To-ADORE
----------------
                  Access        Start Time (UTCG)           Stop Time (UTCG)        Duration (sec)
                  ------    ------------------------    ------------------------    --------------
                       1    24 Aug 2020 16:31:52.846    24 Aug 2020 16:35:09.737           196.891
                       2    25 Aug 2020 09:09:41.587    25 Aug 2020 09:14:57.351           315.764
                       3    25 Aug 2020 10:47:12.144    25 Aug 2020 10:50:48.937           216.793
                       4    25 Aug 2020 12:25:23.178    25 Aug 2020 12:27:05.206           102.028
                       5    25 Aug 2020 14:01:06.986    25 Aug 2020 14:05:34.971           267.985
                       6    25 Aug 2020 15:37:22.226    25 Aug 2020 15:42:11.427           289.201
                       7    26 Aug 2020 08:16:04.900    26 Aug 2020 08:20:54.771           289.871
                       8    26 Aug 2020 09:52:42.194    26 Aug 2020 09:57:09.590           267.395
                       9    26 Aug 2020 11:31:11.986    26 Aug 2020 11:32:53.607           101.621
                      10    26 Aug 2020 13:07:27.611    26 Aug 2020 13:11:05.156           217.546
                      11    26 Aug 2020 14:43:19.421    26 Aug 2020 14:48:35.098           315.677
                      12    27 Aug 2020 07:23:05.814    27 Aug 2020 07:26:24.796           198.981
                      13    27 Aug 2020 08:58:24.073    27 Aug 2020 09:03:26.951           302.878
                      14    27 Aug 2020 10:36:37.885    27 Aug 2020 10:39:06.341           148.456
                      15    27 Aug 2020 12:13:48.587    27 Aug 2020 12:16:28.087           159.500
                      16    27 Aug 2020 13:49:28.928    27 Aug 2020 13:54:36.323           307.396
                      17    27 Aug 2020 15:26:47.366    27 Aug 2020 15:29:32.146           164.779
                      18    28 Aug 2020 08:04:21.756    28 Aug 2020 08:09:38.089           316.333
                      19    28 Aug 2020 09:42:00.163    28 Aug 2020 09:45:26.882           206.719
                      20    28 Aug 2020 11:20:03.855    28 Aug 2020 11:21:52.051           108.196
                      21    28 Aug 2020 12:55:45.347    28 Aug 2020 13:00:20.915           275.569
                      22    28 Aug 2020 14:32:06.574    28 Aug 2020 14:36:45.807           279.233
                      23    29 Aug 2020 07:10:40.461    29 Aug 2020 07:15:38.296           297.835
                      24    29 Aug 2020 08:47:28.545    29 Aug 2020 08:51:47.838           259.293
                      25    29 Aug 2020 10:25:58.005    29 Aug 2020 10:27:35.158            97.153
                      26    29 Aug 2020 12:02:05.577    29 Aug 2020 12:05:52.922           227.344
                      27    29 Aug 2020 13:38:00.559    29 Aug 2020 13:43:14.518           313.959
                      28    30 Aug 2020 06:17:32.183    30 Aug 2020 06:21:15.698           223.516
                      29    30 Aug 2020 07:53:08.027    30 Aug 2020 07:58:05.981           297.954
                      30    30 Aug 2020 09:31:26.424    30 Aug 2020 09:33:44.905           138.481
                      31    30 Aug 2020 11:08:26.773    30 Aug 2020 11:11:16.710           169.937
                      32    30 Aug 2020 12:44:08.382    30 Aug 2020 12:49:19.217           310.835
                      33    30 Aug 2020 14:21:48.193    30 Aug 2020 14:23:47.931           119.738
                      34    31 Aug 2020 06:59:02.580    31 Aug 2020 07:04:18.491           315.910
                      35    31 Aug 2020 08:36:48.387    31 Aug 2020 08:40:04.829           196.443
                      36    31 Aug 2020 10:14:43.858    31 Aug 2020 10:16:39.505           115.647
                      37    31 Aug 2020 11:50:23.827    31 Aug 2020 11:55:06.459           282.632
                      38    31 Aug 2020 13:26:51.842    31 Aug 2020 13:31:18.949           267.108

Global Statistics
-----------------
Min Duration          25    29 Aug 2020 10:25:58.005    29 Aug 2020 10:27:35.158            97.153
Max Duration          18    28 Aug 2020 08:04:21.756    28 Aug 2020 08:09:38.089           316.333
Mean Duration                                                                              228.489
Total Duration                                                                            8682.599
